     2.11           OBSERVATION DATA    M (MIXED)           RINEX VERSION / TYPE
trigPPpart2         COSMIC CDAAC        21-JAN-22 08:57     PGM / RUN BY / DATE 
gfzrnx-1.13-7761    FILE PROCESSING     20231114 042800 UTC COMMENT             
C211                                                        MARKER NAME         
FORMOSAT7/COSMIC-2E NSPO/UCAR                               OBSERVER / AGENCY   
                    BLACKJACK                               REC # / TYPE / VERS 
                    COSMIC-2 (-X POD)                       ANT # / TYPE        
        0.0000        0.0000        0.0000                  ANTENNA: DELTA H/E/N
        0.0000        0.0000        0.0000                  APPROX POSITION XYZ 
     7    C1    C2    L1    L2    P2    S1    S2            # / TYPES OF OBSERV 
     1     1                                                WAVELENGTH FACT L1/2
    50                                                      # OF SATELLITES     
   G01   551   551   551   551         551   551            PRN / # OF OBS      
   G02   597         597   597   597   597   597            PRN / # OF OBS      
   G03   582   582   582   582         582   582            PRN / # OF OBS      
   G04   667   667   667   667         667   667            PRN / # OF OBS      
   G05   492   492   492   492         492   492            PRN / # OF OBS      
   G06   620   620   620   620         620   620            PRN / # OF OBS      
   G07   613   613   613   613         613   613            PRN / # OF OBS      
   G08   674   674   674   674         674   674            PRN / # OF OBS      
   G09   632   632   632   632         632   632            PRN / # OF OBS      
   G10   671   671   671   671         671   671            PRN / # OF OBS      
   G11   574   574   574   574         574   574            PRN / # OF OBS      
   G12   714   714   714   714         714   714            PRN / # OF OBS      
   G13   583         583   583   583   583   583            PRN / # OF OBS      
   G14   587   587   587   587         587   587            PRN / # OF OBS      
   G15   619   619   619   619         619   619            PRN / # OF OBS      
   G16   731         731   731   731   731   731            PRN / # OF OBS      
   G17   580   580   580   580         580   580            PRN / # OF OBS      
   G18   698   698   698   698         698   698            PRN / # OF OBS      
   G19   590         590   590   590   590   590            PRN / # OF OBS      
   G20   436         436   436   436   436   436            PRN / # OF OBS      
   G21   573         573   573   573   573   573            PRN / # OF OBS      
   G23   635   635   635   635         635   635            PRN / # OF OBS      
   G24   685   685   685   685         685   685            PRN / # OF OBS      
   G25   758   758   758   758         758   758            PRN / # OF OBS      
   G26   772   772   772   772         772   772            PRN / # OF OBS      
   G27   723   723   723   723         723   723            PRN / # OF OBS      
   G29   768   768   768   768         768   768            PRN / # OF OBS      
   G30   588   588   588   588         588   588            PRN / # OF OBS      
   G31   771   771   771   771         771   771            PRN / # OF OBS      
   G32   749   749   749   749         749   749            PRN / # OF OBS      
   R01   402   402   402   402         402   402            PRN / # OF OBS      
   R02   446   446   446   446         446   446            PRN / # OF OBS      
   R03   541   541   541   541         541   541            PRN / # OF OBS      
   R04   561   561   561   561         561   561            PRN / # OF OBS      
   R05   525   525   525   525         525   525            PRN / # OF OBS      
   R07   322   322   322   322         322   322            PRN / # OF OBS      
   R08   269   269   269   269         269   269            PRN / # OF OBS      
   R09   617   617   617   617         617   617            PRN / # OF OBS      
   R11   573   573   573   573         573   573            PRN / # OF OBS      
   R12   438   438   438   438         438   438            PRN / # OF OBS      
   R13   473   473   473   473         473   473            PRN / # OF OBS      
   R14   499   499   499   499         499   499            PRN / # OF OBS      
   R15   641   641   641   641         641   641            PRN / # OF OBS      
   R17   611   611   611   611         611   611            PRN / # OF OBS      
   R18   508   508   508   508         508   508            PRN / # OF OBS      
   R19   395   395   395   395         395   395            PRN / # OF OBS      
   R20   365   365   365   365         365   365            PRN / # OF OBS      
   R21   273   273   273   273         273   273            PRN / # OF OBS      
   R22   391   391   391   391         391   391            PRN / # OF OBS      
   R24   447   447   447   447         447   447            PRN / # OF OBS      
    30.000                                                  INTERVAL            
  2022     1    20     0     0    0.0000000     GPS         TIME OF FIRST OBS   
  2022     1    20    23    59   30.0000000     GPS         TIME OF LAST OBS    
                                                            END OF HEADER      
 22 01 20 00 00 00.0000000  0 10G04G16G26G27G31G32R04R05R15R18      
  28536400.704    28536406.789    29618566.095    23231403.514                  
       184.000         191.000  
  27773049.837                    39807538.283    31018843.913    27773052.723  
       352.000          92.000  
  24251280.831    24251283.981    18846488.315    14836700.369                  
       446.000         406.000  
  26443798.036    26443800.485    24783844.640    19464549.976                  
       399.000         408.000  
  21254737.730    21254737.291     7794118.370     6226275.053                  
       725.000         438.000  
  24478328.116    24478330.755     9423959.852     7492294.583                  
       336.000         262.000  
  26006274.194    26006279.312    19207506.427    14939164.591                  
       271.000         184.000  
  26968051.470    26968061.945    38205344.831    29715252.905                  
       535.000         325.000  
  21444743.929    21444749.231     5301856.177     4123671.879                  
       563.000         347.000  
  21164728.892    21164735.617     4933687.737     3837315.644                  
       574.000         389.000  
 22 01 20 00 00 30.0000000  0  9G16G26G27G31G32R04R05R15R18         
  27961335.366                    40796955.217    31789810.632    27961340.254  
       344.000          87.000  
  24414359.087    24414362.758    19703469.874    15504477.908                  
       434.000         402.000  
  26613533.922    26613536.937    25675809.711    20159586.887                  
       396.000         400.000  
  21397193.761    21397193.127     8542728.436     6809607.447                  
       742.000         452.000  
  24588486.025    24588488.882    10002843.262     7943372.310                  
       335.000         260.000  
  26091428.205    26091434.693    19663500.429    15293825.039                  
       270.000         178.000  
  27158897.263    27158907.506    39225523.399    30508724.801                  
       522.000         313.000  
  21543623.316    21543629.404     5830240.079     4534636.994                  
       562.000         351.000  
  21279107.102    21279114.069     5544246.389     4312194.415                  
       596.000         400.000  
 22 01 20 00 01 00.0000000  0  9G16G18G26G27G31G32R04R15R18         
  28148061.012                    41778161.963    32554376.500    28148068.054  
       337.000          74.000  
  19555998.473    19555998.590       86801.298      220486.654                  
       254.000         289.000  
  24578716.329    24578719.454    20567169.485    16177490.273                  
       423.000         398.000  
  26783749.594    26783753.356    26570295.876    20856588.075                  
       388.000         391.000  
  21544761.959    21544761.715     9318204.691     7413874.525                  
       747.000         466.000  
  24699770.541    24699773.235    10587644.416     8399061.276                  
       335.000         260.000  
  26174812.597    26174818.430    20110005.470    15641104.379                  
       265.000         176.000  
  21646437.441    21646443.315     6379646.548     4961953.013                  
       560.000         352.000  
  21399289.103    21399295.712     6185784.550     4811168.378                  
       625.000         410.000  
 22 01 20 00 01 30.0000000  0  9G16G18G26G27G31G32R04R15R18         
  28333096.082                    42750508.478    33312044.723    28333104.281  
       331.000          70.000  
  19576763.975    19576764.804      195926.771      305519.418                  
       265.000         300.000  
  24744195.916    24744199.160    21436770.020    16855100.684                  
       410.000         399.000  
  26954293.665    26954297.736    27466506.565    21554932.738                  
       379.000         383.000  
  21697213.893    21697213.371    10119343.735     8038138.559                  
       751.000         475.000  
  24812048.255    24812051.430    11177668.080     8858819.760                  
       331.000         257.000  
  26256360.765    26256368.476    20546684.381    15980740.251                  
       263.000         174.000  
  21753072.304    21753078.229     6949468.478     5405147.695                  
       560.000         357.000  
  21525087.675    21525094.393     6857305.797     5333462.509                  
       653.000         419.000  
 22 01 20 00 02 00.0000000  0 10G16G18G26G27G31G32R04R15R17R18      
  28516314.380                    43713352.279    34062319.139    28516320.576  
       328.000          65.000  
  19606953.395    19606954.284      354572.660      429139.599                  
       277.000         310.000  
  24910645.276    24910648.960    22311467.934    17536683.147                  
       399.000         391.000  
  27125016.601    27125020.843    28363653.676    22254006.704                  
       367.000         375.000  
  21854317.442    21854316.988    10944928.980     8681451.657                  
       758.000         486.000  
  24925190.105    24925193.079    11772231.408     9322115.657                  
       328.000         258.000  
  26336017.863    26336027.086    20973221.675    16312486.925                  
       259.000         168.000  
  21863410.275    21863415.309     7539080.718     5863734.824                  
       550.000         358.000  
  19749658.718    19749662.857      472792.164      367731.571                  
       868.000         433.000  
  21656308.988    21656315.496     7557772.403     5878269.688                  
       669.000         431.000  
 22 01 20 00 02 30.0000000  0 11G16G18G26G27G29G31G32R04R15R17R18   
  28697599.544                    44666040.659    34804680.427    28697604.838  
       321.000          61.000  
  19646500.020    19646500.431      562390.762      591075.769                  
       294.000         323.000  
  25077914.605    25077918.629    23190472.730    18221621.534                  
       388.000         387.000  
  27295769.818    27295774.392    29260957.395    22953202.012                  
       354.000         365.000  
  22436548.375    22436548.691      147741.466      265147.578                  
       228.000         163.000  
  22015839.599    22015839.294    11793733.738     9342857.880                  
       766.000         492.000  
  25039068.384    25039071.436    12370664.810     9788427.188                  
       323.000         256.000  
  26413725.478    26413735.161    21389323.775    16636115.857                  
       253.000         166.000  
  21977331.986    21977336.941     8147841.153     6337215.005                  
       546.000         360.000  
  19894873.320    19894877.406     1249862.474      972119.508                  
       917.000         458.000  
  21792751.643    21792757.823     8286109.245     6444753.718                  
       678.000         438.000  
 22 01 20 00 03 00.0000000  0 12G16G18G26G27G29G31G32R04R15R17R18R24
  28876838.938                    45607971.653    35538657.943    28876842.973  
       302.000          55.000  
  19695314.275    19695314.811      818911.285      790961.874                  
       312.000         334.000  
  25245856.178    25245859.501    24073007.632    18909310.543                  
       376.000         384.000  
  27466406.366    27466412.302    30157646.135    23651916.835                  
       344.000         354.000  
  22481634.217    22481634.633      384670.120      449767.233                  
       233.000         167.000  
  22181545.829    22181545.568    12664524.742    10021396.144                  
       774.000         498.000  
  25153557.908    25153560.965    12972312.222    10257243.145                  
       327.000         251.000  
  26489435.776    26489446.234    21794719.470    16951416.381                  
       249.000         162.000  
  22094713.027    22094719.327     8775091.969     6825076.584                  
       542.000         363.000  
  20046220.888    20046225.430     2059756.277     1602036.804                  
       947.000         477.000  
  21934206.780    21934213.810     9041208.228     7032052.749                  
       681.000         442.000  
  22141785.021    22141790.633      117048.801       91038.265                  
       276.000         148.000  
 22 01 20 00 03 30.0000000  0 11G18G26G27G29G31G32R04R15R17R18R24   
  19753284.589    19753284.677     1123546.579     1028339.975                  
       336.000         349.000  
  25414323.976    25414328.119    24958310.502    19599156.410                  
       369.000         378.000  
  27636782.932    27636790.328    31052956.318    24349554.721                  
       342.000         347.000  
  22530831.834    22530833.081      643205.716      651223.490                  
       237.000         171.000  
  22351200.737    22351200.379    13556066.112    10716103.505                  
       789.000         503.000  
  25268537.556    25268540.973    13576531.854    10728063.394                  
       326.000         250.000  
  26563100.407    26563112.710    22189162.777    17258199.112                  
       245.000         159.000  
  22215429.113    22215435.201     9420161.999     7326797.577                  
       542.000         366.000  
  20203394.490    20203398.990     2900822.340     2256199.123                  
       962.000         506.000  
  22080462.853    22080470.017     9821932.626     7639282.651                  
       676.000         449.000  
  22199273.067    22199277.717      424465.689      330140.188                  
       281.000         151.000  
 22 01 20 00 04 00.0000000  0 11G18G26G27G29G31G32R04R15R17R18R24   
  19820277.200    19820277.830     1475595.692     1302663.920                  
       363.000         360.000  
  25583176.390    25583180.775    25845633.221    20290576.055                  
       357.000         376.000  
  27806757.391    27806766.889    31946134.822    25045527.646                  
       337.000         339.000  
  22584043.487    22584044.289      922834.479      869116.004                  
       245.000         175.000  
  22524569.015    22524568.538    14467122.238    11426017.242                  
       798.000         505.000  
  25383887.073    25383890.672    14182696.847    11200399.490                  
       321.000         249.000  
  26634675.233    26634689.607    22572426.997    17556288.851                  
       241.000         158.000  
  22339351.769    22339358.148    10082367.436     7841846.098                  
       544.000         370.000  
  20366081.885    20366086.179     3771393.507     2933309.889                  
       977.000         526.000  
  22231301.981    22231308.722    10627120.552     8265539.739                  
       672.000         454.000  
  22260126.227    22260131.213      749874.442      583235.864                  
       283.000         155.000  
 22 01 20 00 04 30.0000000  0 11G18G26G27G29G31G32R04R15R17R18R24   
  19896138.495    19896139.010     1874248.622     1613302.493                  
       389.000         376.000  
  25752273.910    25752278.039    26734242.241    20982997.877                  
       349.000         368.000  
  27976185.207    27976196.603    32836454.576    25739275.999                  
       332.000         331.000  
  22641167.840    22641168.019     1223022.394     1103028.670                  
       249.000         179.000  
  22701416.037    22701415.775    15396459.244    12150175.814                  
       795.000         508.000  
  25499489.989    25499493.868    14790195.113    11673774.451                  
       321.000         245.000  
  26704122.231    26704138.108    22944305.655    17845525.698                  
       234.000         152.000  
  22466351.769    22466358.055    10761013.835     8369682.031                  
       547.000         373.000  
  20533968.990    20533973.696     4669792.559     3632064.600                  
       984.000         543.000  
  22386502.146    22386509.095    11455589.008     8909903.900                  
       667.000         457.000  
  22324203.576    22324207.734     1092523.758      849740.811                  
       285.000         157.000  
 22 01 20 00 05 00.0000000  0 11G18G26G27G29G31G32R04R15R17R18R24   
  19980694.530    19980695.089     2318592.830     1959544.664                  
       412.000         390.000  
  25921478.960    25921483.429    27623418.894    21675861.914                  
       343.000         367.000  
  28144923.795    28144934.396    33723203.797    26430254.435                  
       324.000         327.000  
  22702098.392    22702098.896     1543215.639     1352529.817                  
       253.000         182.000  
  22881508.208    22881507.726    16342848.980    12887622.179                  
       781.000         509.000  
  25615233.731    25615237.743    15398430.149    12147723.460                  
       314.000         243.000  
  26771406.484    26771421.428    23304610.702    18125762.813                  
       230.000         151.000  
  22596296.079    22596302.240    11455397.147     8909757.768                  
       548.000         379.000  
  20706741.901    20706747.628     5594337.588     4351155.075                  
       995.000         562.000  
  22545838.417    22545845.456    12306137.290     9571441.252                  
       666.000         457.000  
  22391361.871    22391367.630     1451651.135     1129062.035                  
       283.000         158.000  
 22 01 20 00 05 30.0000000  0 11G18G26G27G29G31G32R04R15R17R18R24   
  20073753.203    20073753.563     2807619.226     2340604.145                  
       435.000         403.000  
  26090658.675    26090663.063    28512459.227    22368619.589                  
       332.000         363.000  
  28312841.033    28312850.298    34605640.627    27117873.685                  
       311.000         318.000  
  22766727.286    22766727.720     1882843.301     1617174.686                  
       256.000         183.000  
  23064613.012    23064612.630    17305070.587    13637405.058                  
       764.000         506.000  
  25731007.021    25731010.585    16006821.218    12621793.979                  
       314.000         244.000  
  26836498.829    26836512.962    23653173.489    18396867.729                  
       227.000         149.000  
  22729052.630    22729057.838    12164805.434     9461519.619                  
       551.000         383.000  
  20884088.301    20884092.799     6543348.579     5089274.603                  
      1013.000         574.000  
  22709084.115    22709091.050    13177550.927    10249207.200                  
       666.000         454.000  
  22461458.174    22461463.674     1826483.219     1420597.858                  
       284.000         161.000  
 22 01 20 00 06 00.0000000  0 11G18G26G27G29G31G32R04R15R17R18R24   
  20175105.342    20175105.735     3340228.629     2755624.349                  
       458.000         414.000  
  26259681.366    26259686.293    29400673.939    23060733.637                  
       322.000         357.000  
  28479802.778    28479809.994    35483056.413    27801581.225                  
       299.000         316.000  
  22834942.942    22834943.451     2241318.203     1896505.466                  
       264.000         187.000  
  23250500.138    23250500.074    18281913.076    14398580.802                  
       744.000         507.000  
  25846702.577    25846706.657    16614803.526    13095545.875                  
       313.000         240.000  
  26899369.148    26899383.697    23989848.058    18658726.883                  
       222.000         145.000  
  22864485.197    22864491.993    12888519.792    10024408.344                  
       552.000         386.000  
  21065692.596    21065697.873     7515151.456     5845121.138                  
      1036.000         585.000  
  22876008.297    22876015.008    14068604.417    10942248.553                  
       667.000         453.000  
  22534344.429    22534351.064     2216239.187     1723741.154                  
       284.000         162.000  
 22 01 20 00 06 30.0000000  0 11G18G26G27G29G31G32R04R15R17R18R24   
  20284526.332    20284526.659     3915239.192     3203684.397                  
       481.000         434.000  
  26428418.470    26428424.406    30287388.621    23751678.451                  
       318.000         353.000  
  28645808.847    28645816.084    36355432.692    28481356.837                  
       137.000         148.000  
  22906631.053    22906631.325     2618039.851     2190054.472                  
       271.000         192.000  
  23438941.421    23438941.040    19272176.379    15170214.244                  
       734.000         505.000  
  25962216.401    25962220.109    17221828.184    13568551.341                  
       306.000         240.000  
  26959996.843    26960009.662    24314507.165    18911240.330                  
       217.000         143.000  
  23002461.007    23002466.750    13625815.682    10597860.382                  
       555.000         390.000  
  21251245.567    21251250.082     8508082.388     6617400.545                  
      1054.000         592.000  
  23046381.086    23046388.215    14978064.423    11649606.010                  
       665.000         452.000  
  22609874.552    22609880.429     2620132.345     2037880.006                  
       283.000         166.000  
 22 01 20 00 07 00.0000000  0 10G18G26G29G31G32R04R15R17R18R24      
  20401776.813    20401777.703     4531393.585     3683804.528                  
       507.000         456.000  
  26596745.771    26596751.637    31171943.720    24440939.918                  
       309.000         354.000  
  22981674.950    22981674.895     3012395.694     2497344.610                  
       277.000         201.000  
  23629710.311    23629710.414    20274673.701    15951380.618                  
       721.000         505.000  
  26077446.601    26077450.575    17827362.833    14040395.509                  
       300.000         247.000  
  27018360.719    27018373.563    24627044.836    19154325.552                  
       215.000         140.000  
  23142841.646    23142847.654    14375964.846    11181309.279                  
       554.000         392.000  
  21440438.430    21440443.956     9520492.862     7404830.637                  
      1061.000         600.000  
  23219970.257    23219977.353    15904693.683    12370317.238                  
       663.000         453.000  
  22687900.963    22687905.836     3037372.523     2362399.918                  
       288.000         165.000  
 22 01 20 00 07 30.0000000  0 10G18G26G29G31G32R04R15R17R18R24      
  20526604.118    20526604.702     5187366.619     4194952.247                  
       526.000         475.000  
  26764539.718    26764546.568    32053694.435    25128015.401                  
       303.000         347.000  
  23059955.147    23059955.709     3423761.680     2817889.494                  
       281.000         205.000  
  23822584.844    23822584.792    21288233.196    16741166.815                  
       713.000         500.000  
  26192295.167    26192299.663    18430891.505    14510676.285                  
       297.000         244.000  
  27074444.681    27074460.017    24927376.360    19387917.269                  
       213.000         140.000  
  23285490.484    23285496.409    15138235.468    11774185.995                  
       551.000         393.000  
  21632968.028    21632973.028    10550752.069     8206143.031                  
      1054.000         603.000  
  23396543.651    23396550.991    16847252.103    13103417.751                  
       660.000         454.000  
  22768275.507    22768280.502     3467167.053     2696684.330                  
       289.000         168.000  
 22 01 20 00 08 00.0000000  0 10G18G26G29G31G32R04R15R17R18R24      
  20658745.370    20658745.999     5881772.378     4736047.552                  
       549.000         493.000  
  26931680.579    26931688.109    32932010.636    25812413.566                  
       299.000         339.000  
  23141352.162    23141352.087     3851504.837     3151195.767                  
       283.000         207.000  
  24017344.040    24017344.468    22311698.754    17538671.994                  
       702.000         490.000  
  26306667.310    26306672.208    19031914.841    14979004.507                  
       293.000         241.000  
  27128237.728    27128248.768    25215439.240    19611968.853                  
       210.000         136.000  
  23430270.416    23430276.829    15911894.244    12375920.181                  
       546.000         394.000  
  21828531.430    21828536.392    11597251.298     9020086.589                  
      1033.000         605.000  
  23575869.005    23575876.185    17804500.923    13847944.082                  
       658.000         451.000  
  22850848.299    22850854.232     3908723.771     3040117.118                  
       292.000         169.000  
 22 01 20 00 08 30.0000000  0 11G18G25G26G29G31G32R04R15R17R18R24   
  20797926.173    20797926.826     6613171.990     5305969.246                  
       576.000         517.000  
  20019206.402    20019210.244       94333.071      226192.134                  
       236.000         228.000  
  27098051.746    27098060.746    33806276.538    26493654.113                  
       295.000         331.000  
  23225743.571    23225744.270     4294984.374     3496763.980                  
       286.000         212.000  
  24213771.842    24213772.359    23343931.460    18343008.689                  
       688.000         482.000  
  26420471.475    26420476.512    19629949.514    15445003.284                  
       286.000         237.000  
  27179728.014    27179742.005    25491180.057    19826435.659                  
       207.000         133.000  
  23577043.901    23577050.253    16696206.702    12985940.631                  
       543.000         392.000  
  22026833.826    22026838.597    12658405.391     9845428.394                  
      1008.000         600.000  
  23757715.039    23757722.602    18775204.147    14602934.900                  
       656.000         451.000  
  22935473.612    22935478.822     4361251.856     3392083.115                  
       295.000         168.000  
 22 01 20 00 09 00.0000000  0 10G18G25G26G29G31G32R15R17R18R24      
  20943864.142    20943864.944     7380080.724     5903560.358                  
       601.000         537.000  
  20039190.374    20039193.360      199348.161      308021.965                  
       260.000         235.000  
  27263540.365    27263550.959    34675890.413    27171267.463                  
       287.000         322.000  
  23313006.721    23313007.099     4753554.605     3854091.239                  
       283.000         216.000  
  24411654.697    24411654.808    24383809.582    19153302.762                  
       672.000         475.000  
  26533618.756    26533624.524    20224528.445    15908308.253                  
       283.000         235.000  
  23725673.385    23725680.059    17490437.379    13603675.139                  
       534.000         394.000  
  22227583.398    22227588.043    13732655.620    10680956.054                  
       983.000         593.000  
  23941850.474    23941858.864    19758130.389    15367432.372                  
       651.000         446.000  
  23022003.161    23022008.956     4823964.210     3751970.100                  
       297.000         168.000  
 22 01 20 00 09 30.0000000  0 10G18G25G26G29G31G32R15R17R18R24      
  21096269.355    21096270.153     8180975.507     6527634.106                  
       627.000         565.000  
  20066353.910    20066357.204      342094.815      419252.994                  
       278.000         243.000  
  27428033.311    27428046.537    35540265.572    27844796.025                  
       284.000         312.000  
  23403017.650    23403018.748     5226564.220     4222669.922                  
       286.000         223.000  
  24610782.463    24610782.963    25430231.457    19968695.788                  
       653.000         473.000  
  26646023.077    26646029.885    20815201.859    16368568.881                  
       279.000         231.000  
  23876022.507    23876029.233    18293852.377    14228552.852                  
       525.000         391.000  
  22430494.103    22430499.414    14818471.886    11525479.477                  
       973.000         584.000  
  24128046.940    24128055.177    20752055.900    16140484.684                  
       637.000         443.000  
  23110291.243    23110297.611     5296078.969     4119170.191                  
       296.000         169.000  
 22 01 20 00 10 00.0000000  0 10G18G25G26G29G31G32R15R17R18R24      
  21254846.145    21254846.999     9014301.380     7176978.835                  
       653.000         586.000  
  20100659.258    20100662.264      522366.354      559724.259                  
       293.000         256.000  
  27591421.779    27591438.245    36398833.276    28513798.013                  
       276.000         304.000  
  23495651.710    23495652.506     5713359.592     4601990.818                  
       287.000         225.000  
  24810949.756    24810950.158    26482114.280    20788344.057                  
       629.000         464.000  
  26757602.532    26757611.276    21401537.480    16825448.750                  
       275.000         227.000  
  24027952.928    24027959.454    19105719.799    14860004.711                  
       519.000         388.000  
  22635285.522    22635291.811    15914354.011    12377831.892                  
       970.000         571.000  
  24316076.387    24316084.967    21755765.806    16921146.942                  
       624.000         436.000  
  23200192.692    23200198.220     5776820.094     4493079.784                  
       296.000         172.000  
 22 01 20 00 10 30.0000000  0 10G18G25G26G29G31G32R15R17R18R24      
  21419293.685    21419294.467     9878478.308     7850363.383                  
       674.000         609.000  
  20142051.255    20142054.594      739884.871      729219.122                  
       302.000         263.000  
  27753598.317    27753617.911    37251045.500    29177851.099                  
       266.000         298.000  
  23590784.655    23590785.196     6213284.708     4991542.722                  
       287.000         230.000  
  25011953.978    25011954.943    27538395.117    21611419.241                  
       609.000         456.000  
  26868278.871    26868288.071    21983118.290    17278622.798                  
       272.000         227.000  
  24181328.145    24181335.298    19925309.121    15497462.396                  
       511.000         388.000  
  22841684.835    22841690.281    17018833.717    13236871.332                  
       971.000         562.000  
  24505713.377    24505721.734    22768054.814    17708481.576                  
       606.000         430.000  
  23291563.588    23291570.260     6265419.542     4873101.290                  
       298.000         173.000  
 22 01 20 00 11 00.0000000  0 11G18G25G26G29G31G32R14R15R17R18R24   
  21589307.669    21589308.407    10771907.257     8546541.653                  
       684.000         627.000  
  20190465.536    20190468.564      994303.287      927467.088                  
       312.000         275.000  
  27914459.588    27914478.566    38096363.638    29836537.851                  
       261.000         293.000  
  23688290.613    23688291.822     6725682.501     5390813.346                  
       288.000         234.000  
  25213596.528    25213597.854    28598031.566    22437108.984                  
       585.000         448.000  
  26977973.925    26977985.619    22559543.240    17727778.168                  
       272.000         218.000  
  19881570.612    19881578.348      377576.765      293676.331                  
       814.000         429.000  
  24336012.871    24336019.886    20751893.779    16140360.653                  
       503.000         384.000  
  23049421.327    23049427.640    18130475.203    14101480.942                  
       966.000         553.000  
  24696734.083    24696742.956    23787730.329    18501560.827                  
       594.000         418.000  
  23384261.889    23384267.621     6761117.908     5258643.870                  
       299.000         174.000  
 22 01 20 00 11 30.0000000  0 11G18G25G26G29G31G32R14R15R17R18R24   
  21764581.292    21764582.298    11692976.215     9264257.512                  
       690.000         644.000  
  20245822.859    20245826.384     1285207.076     1154145.133                  
       326.000         286.000  
  28073904.459    28073923.955    38934253.211    30489439.196                  
       261.000         284.000  
  23788045.977    23788047.520     7249897.691     5799292.246                  
       287.000         237.000  
  25415683.873    25415685.444    29660002.144    23264617.152                  
       563.000         437.000  
  27086615.545    27086629.484    23130427.099    18172614.154                  
       269.000         215.000  
  20011684.394    20011691.712     1071156.780      833127.295                  
       842.000         448.000  
  24491871.655    24491879.268    21584750.482    16788136.740                  
       497.000         384.000  
  23258235.425    23258240.862    19247875.960    14970569.782                  
       954.000         544.000  
  24888918.279    24888927.760    24813612.311    19299466.558                  
       585.000         413.000  
  23478148.012    23478154.214     7263167.366     5649126.032                  
       298.000         176.000  
 22 01 20 00 12 00.0000000  0 11G18G25G26G29G31G32R14R15R17R18R24   
  21944806.683    21944807.765    12640065.996    10002249.269                  
       695.000         657.000  
  20308031.796    20308035.277     1612116.992     1408879.927                  
       335.000         298.000  
  28231833.446    28231850.673    39764208.942    31136166.503                  
       259.000         276.000  
  23889925.821    23889926.655     7785276.899     6216470.364                  
       286.000         241.000  
  25618025.453    25618027.404    30723306.690    24093164.288                  
       543.000         424.000  
  27194134.825    27194150.715    23695401.432    18612843.426                  
       264.000         215.000  
  20147516.514    20147523.931     1795216.150     1396284.394                  
       871.000         465.000  
  24648770.195    24648777.989    22423160.919    17440232.006                  
       491.000         378.000  
  23467869.646    23467876.047    20369668.414    15843074.187                  
       929.000         531.000  
  25082047.649    25082058.034    25844535.598    20101292.130                  
       579.000         408.000  
  23573084.213    23573090.136     7770830.999     6043974.812                  
       298.000         178.000  
 22 01 20 00 12 30.0000000  0 11G18G25G26G29G31G32R14R15R17R18R24   
  22129675.038    22129676.253    13611554.845    10759253.157                  
       705.000         664.000  
  20376989.561    20376993.031     1974490.733     1691248.838                  
       349.000         314.000  
  28388155.020    28388169.799    40585720.075    31776314.175                  
       252.000         261.000  
  23993805.660    23993807.204     8331169.222     6641840.401                  
       285.000         242.000  
  25820435.073    25820438.021    31786966.174    24921987.135                  
       518.000         414.000  
  27300463.228    27300482.758    24254114.481    19048192.049                  
       260.000         215.000  
  20288839.286    20288846.102     2548543.560     1982205.441                  
       897.000         485.000  
  24806574.941    24806583.224    23266411.016    18096090.628                  
       489.000         375.000  
  23678075.795    23678081.737    21494519.211    16717956.997                  
       896.000         522.000  
  25275907.010    25275919.126    26879349.142    20906141.490                  
       572.000         402.000  
  23668935.232    23668941.639     8283383.993     6442626.142                  
       298.000         178.000  
 22 01 20 00 13 00.0000000  0 10G18G25G29G31G32R14R15R17R18R24      
  22318878.769    22318879.701    14605823.604    11534007.616                  
       724.000         673.000  
  20452581.225    20452584.519     2371726.427     2000782.915                  
       365.000         330.000  
  24099563.746    24099564.895     8886927.967     7074898.453                  
       283.000         246.000  
  26022730.885    26022734.544    32850022.582    25750338.770                  
       506.000         404.000  
  27405537.490    27405560.276    24806232.271    19478400.970                  
       256.000         211.000  
  20435420.551    20435427.969     3329904.827     2589930.574                  
       919.000         500.000  
  24965153.397    24965162.180    24113792.888    18755161.838                  
       480.000         370.000  
  23888611.411    23888617.940    22621130.520    17594208.711                  
       854.000         511.000  
  25470285.015    25470298.783    27916918.975    21713131.816                  
       562.000         396.000  
  23765567.172    23765574.813     8800115.353     6844527.142                  
       297.000         182.000  
 22 01 20 00 13 30.0000000  0 10G18G25G29G31G32R14R15R17R18R24      
  22512109.960    22512111.140    15621259.494    12325255.900                  
       736.000         675.000  
  20534681.487    20534684.678     2803165.434     2336968.935                  
       374.000         349.000  
  24207077.117    24207078.342     9451911.648     7515144.842                  
       281.000         246.000  
  26224735.673    26224740.450    33911539.447    26577488.830                  
       487.000         399.000  
  27509294.886    27509320.366    25351438.119    19903225.385                  
       251.000         210.000  
  20587026.614    20587033.450     4138047.203     3218485.426                  
       940.000         520.000  
  25124374.783    25124384.697    24964604.486    19416899.312                  
       478.000         367.000  
  24099240.319    24099247.133    23748239.521    18470847.101                  
       819.000         497.000  
  25664973.037    25664989.650    28956127.735    22521393.087                  
       549.000         389.000  
  23862850.614    23862857.920     9320329.736     7249137.302                  
       296.000         184.000  
 22 01 20 00 14 00.0000000  0 11G18G23G25G29G31G32R14R15R17R18R24   
  22709064.420    22709065.915    16656260.169    13131749.426                  
       732.000         680.000  
  21405235.483    21405236.104      144734.515      264966.681                  
       251.000         247.000  
  20623154.991    20623158.557     3268095.603     2699251.960                  
       385.000         363.000  
  24316224.658    24316226.661    10025484.107     7962083.740                  
       282.000         248.000  
  26426274.557    26426282.591    34970600.993    27402722.722                  
       472.000         391.000  
  27611678.217    27611705.844    25889427.717    20322428.623                  
       245.000         211.000  
  20743418.250    20743426.004     4971703.925     3866884.826                  
       951.000         534.000  
  25284109.053    25284121.945    25818149.231    20080760.627                  
       475.000         358.000  
  24309732.951    24309739.818    24874618.454    19346916.998                  
       791.000         477.000  
  25859765.021    25859786.204    29995877.259    23330070.769                  
       533.000         379.000  
  23960658.043    23960664.973     9843343.999     7655924.827                  
       290.000         182.000  
 22 01 20 00 14 30.0000000  0 12G10G18G23G25G29G31G32R14R15R17R18R24
  24779507.426    24779511.513      110714.103      238453.037                  
       168.000         163.000  
  22909439.972    22909441.156    17709237.231    13952250.478                  
       716.000         681.000  
  21432440.150    21432441.734      287698.714      376367.133                  
       258.000         258.000  
  20717856.715    20717860.229     3765754.870     3087038.220                  
       399.000         379.000  
  24426887.296    24426889.129    10607016.128     8415224.936                  
       278.000         247.000  
  26627179.610    26627190.011    36026313.151    28225342.863                  
       454.000         385.000  
  27712632.739    27712662.201    26419906.414    20735778.700                  
       244.000         208.000  
  20904357.139    20904364.972     5829597.756     4534135.252                  
       970.000         549.000  
  25444227.609    25444242.066    26673738.065    20746209.328                  
       474.000         355.000  
  24519866.139    24519875.031    25999074.486    20221490.421                  
       763.000         467.000  
  26054457.983    26054483.010    31035096.253    24138335.541                  
       512.000         367.000  
  24058864.773    24058871.900    10368493.030     8064373.000                  
       288.000         184.000  
 22 01 20 00 15 00.0000000  0 12G10G18G23G25G29G31G32R14R15R17R18R24
  24799812.972    24799816.836      217417.538      321598.275                  
       169.000         166.000  
  23112936.941    23112938.551    18778619.491    14785534.765                  
       696.000         682.000  
  21466885.992    21466886.847      468708.437      517413.525                  
       273.000         269.000  
  20818632.496    20818636.045     4295334.571     3499697.488                  
       412.000         390.000  
  24538946.172    24538948.409    11195885.498     8874083.298                  
       280.000         247.000  
  26827284.411    26827298.945    37077806.766    29044672.663                  
       439.000         376.000  
  27812106.091    27812139.110    26942597.654    21143059.208                  
       246.000         207.000  
  21069602.437    21069610.510     6710445.377     5219238.607                  
       990.000         557.000  
  25604602.970    25604620.517    27530690.214    21412715.717                  
       468.000         345.000  
  24729425.695    24729435.833    27120449.852    21093666.413                  
       738.000         452.000  
  26248851.180    26248878.811    32072736.499    24945377.749                  
       491.000         356.000  
  24157349.045    24157356.422    10895125.720     8473974.237                  
       282.000         183.000  
 22 01 20 00 15 30.0000000  0 12G10G18G23G25G29G31G32R14R15R17R18R24
  24823395.030    24823398.246      341338.474      418159.685                  
       172.000         169.000  
  23319260.856    23319262.579    19862854.922    15630392.741                  
       671.000         673.000  
  21508545.440    21508546.415      687629.831      688001.345                  
       283.000         279.000  
  20925320.657    20925324.254     4855983.154     3936566.153                  
       425.000         400.000  
  24652284.836    24652287.330    11791477.908     9338179.892                  
       282.000         243.000  
  27026425.083    27026443.307    38124241.228    29860061.709                  
       427.000         366.000  
  27910043.505    27910075.211    27457272.790    21544107.673                  
       247.000         209.000  
  21238912.194    21238920.212     7612960.594     5921194.360                  
      1011.000         567.000  
  25765110.174    25765130.595    28388332.075    22079755.945                  
       462.000         341.000  
  24938201.464    24938212.792    28237620.469    21962569.832                  
       712.000         440.000  
  26442750.514    26442779.768    33107755.972    25750386.050                  
       477.000         344.000  
  24255993.208    24256002.072    11422609.326     8884236.392                  
       278.000         183.000  
 22 01 20 00 16 00.0000000  0 12G10G18G23G25G29G31G32R14R15R17R18R24
  24850279.175    24850282.876      482613.682      528243.635                  
       179.000         170.000  
  23528120.097    23528122.024    20960413.904    16485632.425                  
       655.000         668.000  
  21557378.574    21557380.234      944248.037      887963.106                  
       300.000         293.000  
  21037751.718    21037755.463     5446810.039     4396950.230                  
       438.000         413.000  
  24766787.696    24766790.570    12393187.755     9807042.747                  
       288.000         242.000  
  27224442.680    27224462.762    39164798.385    30670877.315                  
       406.000         354.000  
  28006400.214    28006429.982    27963670.977    21938713.377                  
       245.000         206.000  
  21412046.168    21412054.360     8535857.913     6639002.684                  
      1035.000         576.000  
  25925622.142    25925646.464    29246004.162    22746819.899                  
       454.000         334.000  
  25145989.542    25146003.220    29349496.786    22827352.437                  
       687.000         434.000  
  26635963.161    26635992.251    34139140.178    26552574.264                  
       462.000         337.000  
  24354681.934    24354692.135    11950328.543     9294680.849                  
       274.000         181.000  
 22 01 20 00 16 30.0000000  0 13G10G12G18G23G25G29G31G32R14R15R17R18
                                R24
  24880486.656    24880490.254      641351.551      651934.620                  
       181.000         172.000  
  19617996.833    19617997.480       56275.850      197075.883                  
       243.000         188.000  
  23739228.331    23739231.150    22069791.010    17350080.756                  
       651.000         652.000  
  21613329.263    21613330.397     1238268.561     1117069.622                  
       311.000         304.000  
  21155749.018    21155753.252     6066889.696     4880128.806                  
       450.000         423.000  
  24882341.509    24882344.930    13000420.355    10280209.119                  
       290.000         240.000  
  27421184.630    27421206.152    40198664.110    31476481.772                  
       395.000         342.000  
  28101134.282    28101160.812    28461553.873    22326686.983                  
       250.000         204.000  
  21588762.989    21588771.299     9477855.464     7371666.656                  
      1057.000         580.000  
  26086015.756    26086041.780    30103056.809    23413406.273                  
       447.000         325.000  
  25352593.065    25352610.453    30455024.684    23687194.202                  
       663.000         422.000  
  26828302.496    26828330.399    35165884.765    27351159.119                  
       451.000         327.000  
  24453303.738    24453314.478    12477687.922     9704845.332                  
       267.000         178.000  
 22 01 20 00 17 00.0000000  0 13G10G12G18G23G25G29G31G32R14R15R17R18
                                R24
  24914031.845    24914035.904      817631.999      789295.319                  
       187.000         176.000  
  19631031.294    19631031.441      124768.191      250446.383                  
       258.000         199.000  
  23952304.382    23952307.138    23189507.413    18222585.623                  
       645.000         641.000  
  21676326.164    21676327.322     1569317.790     1375029.630                  
       317.000         322.000  
  21279130.894    21279135.380     6715264.111     5385355.142                  
       461.000         434.000  
  24998835.210    24998838.724    13612588.699    10757221.038                  
       295.000         237.000  
  27616500.575    27616521.462    41225057.599    32276269.392                  
       384.000         330.000  
  28194207.692    28194231.647    28950690.586    22707841.339                  
       247.000         201.000  
  21768823.839    21768832.520    10437677.989     8118194.491                  
      1068.000         593.000  
  26246167.496    26246195.528    30958845.586    24079015.854                  
       442.000         319.000  
  25557821.593    25557842.381    31553188.581    24541307.690                  
       635.000         417.000  
  27019586.854    27019612.119    36187006.137    28145373.493                  
       440.000         324.000  
  24551749.351    24551761.179    13004108.307    10114279.281                  
       263.000         178.000  
 22 01 20 00 17 30.0000000  0 12G10G12G18G23G25G29G31G32R14R15R17R24
  24950923.879    24950929.628     1011504.206      940364.040                  
       193.000         178.000  
  19652083.647    19652083.999      235400.302      336653.274                  
       271.000         207.000  
  24167071.919    24167074.658    24318110.955    19102015.369                  
       632.000         624.000  
  21746283.371    21746284.919     1936946.388     1661493.337                  
       330.000         332.000  
  21407709.652    21407713.646     7390948.148     5911861.974                  
       475.000         444.000  
  25116157.998    25116162.400    14229118.805    11237632.290                  
       296.000         238.000  
  27810245.365    27810265.456    42243208.946    33069638.157                  
       370.000         318.000  
  28285580.164    28285603.282    29430880.174    23082021.004                  
       265.000         227.000  
  21951990.964    21951999.553    11414058.405     8877600.736                  
      1068.000         594.000  
  26405960.268    26405988.102    31812722.108    24743140.259                  
       437.000         312.000  
  25761489.365    25761512.837    32643006.598    25388931.940                  
       614.000         404.000  
  24649915.369    24649928.137    13529031.444    10522549.579                  
       258.000         178.000  
 22 01 20 00 18 00.0000000  0 12G10G12G18G23G25G29G31G32R14R15R17R24
  24991169.084    24991173.731     1222987.912     1105156.450                  
       196.000         183.000  
  19681113.302    19681113.418      387951.133      455523.955                  
       288.000         216.000  
  24383259.449    24383262.923    25454178.682    19987261.290                  
       624.000         614.000  
  21823102.301    21823103.631     2340630.023     1976051.908                  
       334.000         345.000  
  21541292.622    21541296.833     8092930.971     6458861.314                  
       488.000         457.000  
  25234203.399    25234208.561    14849444.275    11721000.922                  
       297.000         237.000  
  28002277.340    28002295.037    43252371.707    33856005.991                  
       357.000         306.000  
  28375214.955    28375235.484    29901942.624    23449090.428                  
       241.000         194.000  
  22138028.848    22138036.521    12405741.736     9648909.443                  
      1067.000         605.000  
  26565274.947    26565303.195    32664055.696    25405289.301                  
       432.000         309.000  
  25963417.179    25963443.436    33723522.759    26229322.614                  
       600.000         394.000  
  24747699.549    24747713.767    14051912.800    10929231.394                  
       254.000         179.000  
 22 01 20 00 18 30.0000000  0 13G10G12G18G23G25G29G31G32R13R14R15R17
                                R24
  25034762.411    25034767.064     1452070.363     1283661.828                  
       199.000         186.000  
  19718061.339    19718061.165      582112.223      606817.976                  
       305.000         228.000  
  24600602.693    24600606.761    26596316.276    20877236.496                  
       607.000         602.000  
  21906668.384    21906670.079     2779772.771     2318240.610                  
       338.000         359.000  
  21679684.118    21679688.415     8820180.533     7025548.627                  
       500.000         468.000  
  25352866.833    25352872.368    15473008.698    12206892.238                  
       295.000         236.000  
  28192457.464    28192471.655    44251830.883    34634819.860                  
       349.000         296.000  
  28463078.986    28463098.876    30363692.246    23808900.020                  
       235.000         187.000  
  19871906.308    19871912.945      240714.539      187230.015                  
       116.000         115.000  
  22326704.065    22326713.029    13411484.294    10431152.729                  
      1050.000         605.000  
  26723996.121    26724022.424    33512224.304    26064979.287                  
       426.000         299.000  
  26163433.643    26163460.971    34793818.362    27061767.036                  
       591.000         379.000  
  24845004.740    24845018.932    14572229.632    11333917.871                  
       254.000         174.000  
 22 01 20 00 19 00.0000000  0 13G05G10G12G18G23G25G29G32R13R14R15R17
                                R24
  22552501.848    22552504.158      337082.507      411500.146                  
       205.000         162.000  
  25081697.727    25081701.882     1698709.024     1475846.662                  
       203.000         191.000  
  19762852.294    19762852.955      817489.253      790228.135                  
       314.000         235.000  
  24818842.060    24818846.773    27743159.982    21770877.979                  
       589.000         599.000  
  21996856.566    21996858.199     3253711.404     2687542.664                  
       351.000         376.000  
  21822684.285    21822688.990     9571647.858     7611106.610                  
       509.000         480.000  
  25472042.843    25472049.380    16099270.119    12694884.573                  
       298.000         236.000  
  28549148.638    28549168.235    30816003.011    24161352.374                  
       202.000         156.000  
  19956280.920    19956287.563      691265.995      537658.332                  
       124.000         121.000  
  22517786.987    22517796.307    14430057.966    11223375.301                  
      1034.000         603.000  
  26882009.387    26882035.617    34356605.949    26721722.191                  
       423.000         292.000  
  26361370.605    26361399.094    35853004.165    27885574.505                  
       582.000         365.000  
  24941735.821    24941751.398    15089481.257    11736221.137                  
       251.000         173.000  
 22 01 20 00 19 30.0000000  0 13G05G10G12G18G23G25G29G32R13R14R15R17
                                R24
  22614646.197    22614648.402      663646.584      665964.998                  
       219.000         168.000  
  25131959.690    25131964.981     1962831.795     1681654.840                  
       206.000         192.000  
  19815395.491    19815396.098     1093606.384     1005384.095                  
       325.000         244.000  
  25037724.410    25037729.950    28893377.411    22667147.219                  
       568.000         587.000  
  22093527.521    22093529.520     3761718.638     3083391.664                  
       361.000         391.000  
  21970090.842    21970095.553    10346270.089     8214707.325                  
       523.000         491.000  
  25591631.243    25591638.553    16727697.808    13184564.791                  
       295.000         233.000  
  28633513.095    28633533.542    31259342.224    24506810.704                  
       118.000          93.000  
  20046275.162    20046282.317     1171830.352      911430.158                  
       132.000         126.000  
  22711050.004    22711059.701    15460251.503    12024635.015                  
      1022.000         598.000  
  27039198.859    27039223.839    35196612.935    27375069.113                  
       423.000         282.000  
  26557066.254    26557094.812    36900225.004    28700082.208                  
       573.000         349.000  
  25037803.953    25037819.401    15603182.347    12135763.007                  
       247.000         171.000  
 22 01 20 00 20 00.0000000  0 12G05G10G12G18G23G25G29R13R14R15R17R24
  22681730.343    22681732.905     1016176.940      940663.610                  
       227.000         174.000  
  25185528.702    25185535.141     2244338.292     1901009.363                  
       211.000         195.000  
  19875585.700    19875586.438     1409906.768     1251851.941                  
       336.000         248.000  
  25257001.845    25257008.853    30045667.697    23565030.266                  
       546.000         571.000  
  22196531.759    22196533.875     4303006.327     3505173.972                  
       376.000         405.000  
  22121699.021    22121703.618    11142973.281     8835514.416                  
       531.000         502.000  
  25711533.503    25711541.639    17357772.122    13675527.983                  
       286.000         231.000  
  20141718.941    20141725.981     1681490.244     1307832.251                  
       139.000         132.000  
  22906269.315    22906279.427    16500872.142    12834004.518                  
      1022.000         598.000  
  27195455.556    27195477.330    36031647.706    28024552.863                  
       417.000         276.000  
  26750368.515    26750395.865    37934643.785    29504635.271                  
       559.000         338.000  
  25133119.888    25133138.019    16112864.091    12532176.955                  
       249.000         170.000  
 22 01 20 00 20 30.0000000  0 12G05G10G12G18G23G25G29R13R14R15R17R24
